[
  {
    "id": 1,
    "name": "Volcanic Eruption - Iceland",
    "latitude": 64.9631,
    "longitude": -19.0208,
    "metadata": {
      "date": "2024-09-01",
      "type": "volcano"
    }
  },
  {
    "id": 2,
    "name": "Wildfire - California",
    "latitude": 36.7783,
    "longitude": -119.4179,
    "metadata": {
      "date": "2025-07-15",
      "type": "wildfire"
    }
  },
  {
    "id": 3,
    "name": "Flood - Bangladesh",
    "latitude": 23.685,
    "longitude": 90.3563,
    "metadata": {
      "date": "2025-06-20",
      "type": "flood"
    }
  },
  {
    "id": 4,
    "name": "Earthquake - Japan",
    "latitude": 36.2048,
    "longitude": 138.2529,
    "metadata": {
      "date": "2025-03-03",
      "type": "earthquake"
    }
  },
  {
    "id": 5,
    "name": "Tropical Cyclone - Australia",
    "latitude": -25.2744,
    "longitude": 133.7751,
    "metadata": {
      "date": "2025-01-11",
      "type": "cyclone"
    }
  }
]
